[{"name":"Restaurant North, Market North; Armonk, N.Y.","description":"One of the Hudson Valley's best farm-to-table restaurants. Owned by two alums from Danny Meyer's restaurant empire, Restaurant North serves the best local ingredients prepared by the talented James Beard Award-nominated chef Eric Gabrynowicz. The menu changes depending on what's in season, but always expect to see a cut of pork and beautiful tender greens. The white-tablecloth setting is serene and the service is flawless. For a more casual version, where you can get sandwiches and salads to go, head across the street to Market North, the little sister cafe.","detour":"Not five minutes off I-684. Exit 3N, Armonk.","map":"https://www.google.com/maps/place/Restaurant+North/@41.125251,-73.716185,17z/data=!3m1!4b1!4m2!3m1!1s0x89c2bc4360856a93:0xb671856d5be0e15f","address":"386 Main St, Armonk","phone":"914-273-8686","website":"restaurantnorth.com","lat":"41.125251","long":"-73.7161797"},{"name":"test","description":"test","detour":"test","map":"test","address":"test","phone":"-9929","website":"test","lat":"test","long":"test"},{"name":"test","description":"test","detour":"test","map":"test","address":"test","phone":"-9929","website":"test","lat":"test","long":"test"},{"name":"test","description":"test","detour":"test","map":"test","address":"test","phone":"-9929","website":"test","lat":"test","long":"test"},{"name":"test","description":"test","detour":"test","map":"test","address":"test","phone":"-9929","website":"test","lat":"test","long":"test"},{"name":"test","description":"test","detour":"test","map":"test","address":"test","phone":"-9929","website":"test","lat":"test","long":"test"},{"name":"test","description":"test","detour":"test","map":"test","address":"test","phone":"-9929","website":"test","lat":"test","long":"test"},{"name":"test","description":"test","detour":"test","map":"test","address":"test","phone":"-9929","website":"test","lat":"test","long":"test"},{"name":"test","description":"test","detour":"test","map":"test","address":"test","phone":"-9929","website":"test","lat":"test","long":"test"},{"name":"Testing","description":"<p><strong>Test bold</strong></p>\r\n<p><em>Test italic</em></p>","detour":"a few","map":"http://kaiteoh.com","address":"","phone":"3202982550","website":"http://kaiteoh.com","lat":"123","long":"123"}]